{"type":"FeatureCollection","features":[{"type":"Feature","properties":{"name":"Mount Elbert","name_abbr":"Mt. Elbert","rank":1,"elev":14433,"range":"Sawatch Range","range_abbr":"Sawatch","Unranked Notes":"","forecast":"https://api.darksky.net/forecast/2ef0d25a58c09e083c5783ee44cbfea9/39.118075,-106.445417"},"geometry":{"type":"Point","coordinates":[-106.445417,39.118075]}},{"type":"Feature","properties":{"name":"Mount Massive","name_abbr":"Mt. Massive","rank":2,"elev":14421,"range":"Sawatch Range","range_abbr":"Sawatch","Unranked Notes":"","forecast":"https://api.darksky.net/forecast/2ef0d25a58c09e083c5783ee44cbfea9/39.187298,-106.475548"},"geometry":{"type":"Point","coordinates":[-106.475548,39.187298]}},{"type":"Feature","properties":{"name":"Mount Harvard","name_abbr":"Mt. Harvard","rank":3,"elev":14420,"range":"Sawatch Range","range_abbr":"Sawatch","Unranked Notes":"","forecast":"https://api.darksky.net/forecast/2ef0d25a58c09e083c5783ee44cbfea9/38.924328,-106.320618"},"geometry":{"type":"Point","coordinates":[-106.320618,38.924328]}},{"type":"Feature","properties":{"name":"Blanca Peak","name_abbr":"Blanca Pk.","rank":4,"elev":14345,"range":"Sangre de Cristo Range","range_abbr":"Sangre de Cristo","Unranked Notes":"","forecast":"https://api.darksky.net/forecast/2ef0d25a58c09e083c5783ee44cbfea9/37.577473,-105.485443"},"geometry":{"type":"Point","coordinates":[-105.485443,37.577473]}},{"type":"Feature","properties":{"name":"La Plata Peak","name_abbr":"La Plata Pk.","rank":5,"elev":14336,"range":"Sawatch Range","range_abbr":"Sawatch","Unranked Notes":"","forecast":"https://api.darksky.net/forecast/2ef0d25a58c09e083c5783ee44cbfea9/39.029251,-106.473145"},"geometry":{"type":"Point","coordinates":[-106.473145,39.029251]}},{"type":"Feature","properties":{"name":"Uncompahgre Peak","name_abbr":"Uncompahgre Pk.","rank":6,"elev":14309,"range":"San Juan Mountains","range_abbr":"San Juan","Unranked Notes":"","forecast":"https://api.darksky.net/forecast/2ef0d25a58c09e083c5783ee44cbfea9/38.071507,-107.462166"},"geometry":{"type":"Point","coordinates":[-107.462166,38.071507]}},{"type":"Feature","properties":{"name":"Crestone Peak","name_abbr":"Crestone Pk.","rank":7,"elev":14294,"range":"Sangre de Cristo Range","range_abbr":"Sangre de Cristo","Unranked Notes":"","forecast":"https://api.darksky.net/forecast/2ef0d25a58c09e083c5783ee44cbfea9/37.966972,-105.585304"},"geometry":{"type":"Point","coordinates":[-105.585304,37.966972]}},{"type":"Feature","properties":{"name":"Mount Lincoln","name_abbr":"Mt. Lincoln","rank":8,"elev":14286,"range":"Mosquito Range","range_abbr":"Mosquito","Unranked Notes":"","forecast":"https://api.darksky.net/forecast/2ef0d25a58c09e083c5783ee44cbfea9/39.351391,-106.111404"},"geometry":{"type":"Point","coordinates":[-106.111404,39.351391]}},{"type":"Feature","properties":{"name":"Grays Peak","name_abbr":"Grays Pk.","rank":9,"elev":14270,"range":"Front Range","range_abbr":"Front","Unranked Notes":"","forecast":"https://api.darksky.net/forecast/2ef0d25a58c09e083c5783ee44cbfea9/39.63382,-105.81752"},"geometry":{"type":"Point","coordinates":[-105.81752,39.63382]}},{"type":"Feature","properties":{"name":"Mount Antero","name_abbr":"Mt. Antero","rank":10,"elev":14269,"range":"Sawatch Range","range_abbr":"Sawatch","Unranked Notes":"","forecast":"https://api.darksky.net/forecast/2ef0d25a58c09e083c5783ee44cbfea9/38.674088,-106.246201"},"geometry":{"type":"Point","coordinates":[-106.246201,38.674088]}},{"type":"Feature","properties":{"name":"Torreys Peak","name_abbr":"Torreys Pk.","rank":11,"elev":14267,"range":"Front Range","range_abbr":"Front","Unranked Notes":"","forecast":"https://api.darksky.net/forecast/2ef0d25a58c09e083c5783ee44cbfea9/39.642742,-105.821259"},"geometry":{"type":"Point","coordinates":[-105.821259,39.642742]}},{"type":"Feature","properties":{"name":"Quandary Peak","name_abbr":"Quandary Pk.","rank":13,"elev":14265,"range":"Tenmile Range","range_abbr":"Tenmile","Unranked Notes":"","forecast":"https://api.darksky.net/forecast/2ef0d25a58c09e083c5783ee44cbfea9/39.397236,-106.10643"},"geometry":{"type":"Point","coordinates":[-106.10643,39.397236]}},{"type":"Feature","properties":{"name":"Castle Peak","name_abbr":"Castle Pk.","rank":12,"elev":14265,"range":"Elk Mountains","range_abbr":"Elk","Unranked Notes":"","forecast":"https://api.darksky.net/forecast/2ef0d25a58c09e083c5783ee44cbfea9/39.009647,-106.86144"},"geometry":{"type":"Point","coordinates":[-106.86144,39.009647]}},{"type":"Feature","properties":{"name":"Mount Evans","name_abbr":"Mt. Evans","rank":14,"elev":14264,"range":"Front Range","range_abbr":"Front","Unranked Notes":"","forecast":"https://api.darksky.net/forecast/2ef0d25a58c09e083c5783ee44cbfea9/39.58836,-105.643333"},"geometry":{"type":"Point","coordinates":[-105.643333,39.58836]}},{"type":"Feature","properties":{"name":"Longs Peak","name_abbr":"Longs Pk.","rank":15,"elev":14255,"range":"Front Range","range_abbr":"Front","Unranked Notes":"","forecast":"https://api.darksky.net/forecast/2ef0d25a58c09e083c5783ee44cbfea9/40.254902,-105.615738"},"geometry":{"type":"Point","coordinates":[-105.615738,40.254902]}},{"type":"Feature","properties":{"name":"Mount Wilson","name_abbr":"Mt. Wilson","rank":16,"elev":14246,"range":"San Juan Mountains","range_abbr":"San Juan","Unranked Notes":"","forecast":"https://api.darksky.net/forecast/2ef0d25a58c09e083c5783ee44cbfea9/37.83931,-107.99157"},"geometry":{"type":"Point","coordinates":[-107.99157,37.83931]}},{"type":"Feature","properties":{"name":"Mount Cameron","name_abbr":"Mt. Cameron","rank":"","elev":14238,"range":"Mosquito Range","range_abbr":"Mosquito","Unranked Notes":"138 feet above its saddle with Mt. Lincoln","forecast":"https://api.darksky.net/forecast/2ef0d25a58c09e083c5783ee44cbfea9/39.346844,-106.118576"},"geometry":{"type":"Point","coordinates":[-106.118576,39.346844]}},{"type":"Feature","properties":{"name":"Mount Shavano","name_abbr":"Mt. Shavano","rank":17,"elev":14229,"range":"Sawatch Range","range_abbr":"Sawatch","Unranked Notes":"","forecast":"https://api.darksky.net/forecast/2ef0d25a58c09e083c5783ee44cbfea9/38.619083,-106.239296"},"geometry":{"type":"Point","coordinates":[-106.239296,38.619083]}},{"type":"Feature","properties":{"name":"Mount Princeton","name_abbr":"Mt. Princeton","rank":20,"elev":14197,"range":"Sawatch Range","range_abbr":"Sawatch","Unranked Notes":"","forecast":"https://api.darksky.net/forecast/2ef0d25a58c09e083c5783ee44cbfea9/38.749062,-106.242432"},"geometry":{"type":"Point","coordinates":[-106.242432,38.749062]}},{"type":"Feature","properties":{"name":"Crestone Needle","name_abbr":"Crestone Ndl.","rank":19,"elev":14197,"range":"Sangre de Cristo Range","range_abbr":"Sangre de Cristo","Unranked Notes":"","forecast":"https://api.darksky.net/forecast/2ef0d25a58c09e083c5783ee44cbfea9/37.964737,-105.576683"},"geometry":{"type":"Point","coordinates":[-105.576683,37.964737]}},{"type":"Feature","properties":{"name":"Mount Belford","name_abbr":"Mt. Belford","rank":18,"elev":14197,"range":"Sawatch Range","range_abbr":"Sawatch","Unranked Notes":"","forecast":"https://api.darksky.net/forecast/2ef0d25a58c09e083c5783ee44cbfea9/38.960575,-106.360832"},"geometry":{"type":"Point","coordinates":[-106.360832,38.960575]}},{"type":"Feature","properties":{"name":"Mount Yale","name_abbr":"Mt. Yale","rank":21,"elev":14196,"range":"Sawatch Range","range_abbr":"Sawatch","Unranked Notes":"","forecast":"https://api.darksky.net/forecast/2ef0d25a58c09e083c5783ee44cbfea9/38.844051,-106.313965"},"geometry":{"type":"Point","coordinates":[-106.313965,38.844051]}},{"type":"Feature","properties":{"name":"Mount Bross","name_abbr":"Mt. Bross","rank":22,"elev":14172,"range":"Mosquito Range","range_abbr":"Mosquito","Unranked Notes":"","forecast":"https://api.darksky.net/forecast/2ef0d25a58c09e083c5783ee44cbfea9/39.33506,-106.107376"},"geometry":{"type":"Point","coordinates":[-106.107376,39.33506]}},{"type":"Feature","properties":{"name":"Kit Carson Peak","name_abbr":"Kit Carson Pk.","rank":23,"elev":14165,"range":"Sangre de Cristo Range","range_abbr":"Sangre de Cristo","Unranked Notes":"","forecast":"https://api.darksky.net/forecast/2ef0d25a58c09e083c5783ee44cbfea9/37.979759,-105.602562"},"geometry":{"type":"Point","coordinates":[-105.602562,37.979759]}},{"type":"Feature","properties":{"name":"El Diente Peak","name_abbr":"El Diente Pk.","rank":"","elev":14159,"range":"San Juan Mountains","range_abbr":"San Juan","Unranked Notes":"259 feet above its saddle with Mt. Wilson","forecast":"https://api.darksky.net/forecast/2ef0d25a58c09e083c5783ee44cbfea9/37.839275,-108.005219"},"geometry":{"type":"Point","coordinates":[-108.005219,37.839275]}},{"type":"Feature","properties":{"name":"Maroon Peak","name_abbr":"Maroon Pk.","rank":24,"elev":14156,"range":"Elk Mountains","range_abbr":"Elk","Unranked Notes":"","forecast":"https://api.darksky.net/forecast/2ef0d25a58c09e083c5783ee44cbfea9/39.070713,-106.989113"},"geometry":{"type":"Point","coordinates":[-106.989113,39.070713]}},{"type":"Feature","properties":{"name":"Tabeguache Peak","name_abbr":"Tabeguache Pk.","rank":25,"elev":14155,"range":"Sawatch Range","range_abbr":"Sawatch","Unranked Notes":"","forecast":"https://api.darksky.net/forecast/2ef0d25a58c09e083c5783ee44cbfea9/38.625622,-106.25071"},"geometry":{"type":"Point","coordinates":[-106.25071,38.625622]}},{"type":"Feature","properties":{"name":"Mount Oxford","name_abbr":"Mt. Oxford","rank":26,"elev":14153,"range":"Sawatch Range","range_abbr":"Sawatch","Unranked Notes":"","forecast":"https://api.darksky.net/forecast/2ef0d25a58c09e083c5783ee44cbfea9/38.96468,-106.338432"},"geometry":{"type":"Point","coordinates":[-106.338432,38.96468]}},{"type":"Feature","properties":{"name":"Mount Sneffels","name_abbr":"Mt. Sneffels","rank":27,"elev":14150,"range":"San Juan Mountains","range_abbr":"San Juan","Unranked Notes":"","forecast":"https://api.darksky.net/forecast/2ef0d25a58c09e083c5783ee44cbfea9/38.003605,-107.792229"},"geometry":{"type":"Point","coordinates":[-107.792229,38.003605]}},{"type":"Feature","properties":{"name":"Mount Democrat","name_abbr":"Mt. Democrat","rank":28,"elev":14148,"range":"Mosquito Range","range_abbr":"Mosquito","Unranked Notes":"","forecast":"https://api.darksky.net/forecast/2ef0d25a58c09e083c5783ee44cbfea9/39.339542,-106.139946"},"geometry":{"type":"Point","coordinates":[-106.139946,39.339542]}},{"type":"Feature","properties":{"name":"Capitol Peak","name_abbr":"Capitol Pk.","rank":29,"elev":14130,"range":"Elk Mountains","range_abbr":"Elk","Unranked Notes":"","forecast":"https://api.darksky.net/forecast/2ef0d25a58c09e083c5783ee44cbfea9/39.150166,-107.083221"},"geometry":{"type":"Point","coordinates":[-107.083221,39.150166]}},{"type":"Feature","properties":{"name":"Pikes Peak","name_abbr":"Pikes Pk.","rank":30,"elev":14110,"range":"Front Range","range_abbr":"Front","Unranked Notes":"","forecast":"https://api.darksky.net/forecast/2ef0d25a58c09e083c5783ee44cbfea9/38.840542,-105.044357"},"geometry":{"type":"Point","coordinates":[-105.044357,38.840542]}},{"type":"Feature","properties":{"name":"Snowmass Mountain","name_abbr":"Snowmass Mtn.","rank":31,"elev":14092,"range":"Elk Mountains","range_abbr":"Elk","Unranked Notes":"","forecast":"https://api.darksky.net/forecast/2ef0d25a58c09e083c5783ee44cbfea9/39.118809,-107.066528"},"geometry":{"type":"Point","coordinates":[-107.066528,39.118809]}},{"type":"Feature","properties":{"name":"Mount Eolus","name_abbr":"Mt. Eolus","rank":32,"elev":14083,"range":"San Juan Mountains","range_abbr":"San Juan","Unranked Notes":"","forecast":"https://api.darksky.net/forecast/2ef0d25a58c09e083c5783ee44cbfea9/37.621948,-107.622498"},"geometry":{"type":"Point","coordinates":[-107.622498,37.621948]}},{"type":"Feature","properties":{"name":"Windom Peak","name_abbr":"Windom Pk.","rank":33,"elev":14082,"range":"San Juan Mountains","range_abbr":"San Juan","Unranked Notes":"","forecast":"https://api.darksky.net/forecast/2ef0d25a58c09e083c5783ee44cbfea9/37.621235,-107.591774"},"geometry":{"type":"Point","coordinates":[-107.591774,37.621235]}},{"type":"Feature","properties":{"name":"Challenger Point","name_abbr":"Challenger Pt.","rank":34,"elev":14081,"range":"Sangre de Cristo Range","range_abbr":"Sangre de Cristo","Unranked Notes":"","forecast":"https://api.darksky.net/forecast/2ef0d25a58c09e083c5783ee44cbfea9/37.980267,-105.606766"},"geometry":{"type":"Point","coordinates":[-105.606766,37.980267]}},{"type":"Feature","properties":{"name":"Mount Columbia","name_abbr":"Mt. Columbia","rank":35,"elev":14073,"range":"Sawatch Range","range_abbr":"Sawatch","Unranked Notes":"","forecast":"https://api.darksky.net/forecast/2ef0d25a58c09e083c5783ee44cbfea9/38.903957,-106.297485"},"geometry":{"type":"Point","coordinates":[-106.297485,38.903957]}},{"type":"Feature","properties":{"name":"Missouri Mountain","name_abbr":"Missouri Mtn.","rank":36,"elev":14067,"range":"Sawatch Range","range_abbr":"Sawatch","Unranked Notes":"","forecast":"https://api.darksky.net/forecast/2ef0d25a58c09e083c5783ee44cbfea9/38.947559,-106.378471"},"geometry":{"type":"Point","coordinates":[-106.378471,38.947559]}},{"type":"Feature","properties":{"name":"Humboldt Peak","name_abbr":"Humboldt Pk.","rank":37,"elev":14064,"range":"Sangre de Cristo Range","range_abbr":"Sangre de Cristo","Unranked Notes":"","forecast":"https://api.darksky.net/forecast/2ef0d25a58c09e083c5783ee44cbfea9/37.976105,-105.555351"},"geometry":{"type":"Point","coordinates":[-105.555351,37.976105]}},{"type":"Feature","properties":{"name":"Mount Bierstadt","name_abbr":"Mt. Bierstadt","rank":38,"elev":14060,"range":"Front Range","range_abbr":"Front","Unranked Notes":"","forecast":"https://api.darksky.net/forecast/2ef0d25a58c09e083c5783ee44cbfea9/39.582638,-105.66861"},"geometry":{"type":"Point","coordinates":[-105.66861,39.582638]}},{"type":"Feature","properties":{"name":"Conundrum Peak","name_abbr":"Conundrum Pk.","rank":"","elev":14060,"range":"Elk Mountains","range_abbr":"Elk","Unranked Notes":"240 feet above its saddle with Castle Peak","forecast":"https://api.darksky.net/forecast/2ef0d25a58c09e083c5783ee44cbfea9/39.01563,-106.86294"},"geometry":{"type":"Point","coordinates":[-106.86294,39.01563]}},{"type":"Feature","properties":{"name":"Sunlight Peak","name_abbr":"Sunlight Pk.","rank":39,"elev":14059,"range":"San Juan Mountains","range_abbr":"San Juan","Unranked Notes":"","forecast":"https://api.darksky.net/forecast/2ef0d25a58c09e083c5783ee44cbfea9/37.627285,-107.595894"},"geometry":{"type":"Point","coordinates":[-107.595894,37.627285]}},{"type":"Feature","properties":{"name":"Handies Peak","name_abbr":"Handies Pk.","rank":40,"elev":14048,"range":"San Juan Mountains","range_abbr":"San Juan","Unranked Notes":"","forecast":"https://api.darksky.net/forecast/2ef0d25a58c09e083c5783ee44cbfea9/37.913021,-107.504478"},"geometry":{"type":"Point","coordinates":[-107.504478,37.913021]}},{"type":"Feature","properties":{"name":"Culebra Peak","name_abbr":"Culebra Pk.","rank":41,"elev":14047,"range":"Sangre de Cristo Range","range_abbr":"Sangre de Cristo","Unranked Notes":"","forecast":"https://api.darksky.net/forecast/2ef0d25a58c09e083c5783ee44cbfea9/37.122173,-105.185593"},"geometry":{"type":"Point","coordinates":[-105.185593,37.122173]}},{"type":"Feature","properties":{"name":"Ellingwood Point","name_abbr":"Ellingwood Pt.","rank":42,"elev":14042,"range":"Sangre de Cristo Range","range_abbr":"Sangre de Cristo","Unranked Notes":"","forecast":"https://api.darksky.net/forecast/2ef0d25a58c09e083c5783ee44cbfea9/37.582508,-105.492569"},"geometry":{"type":"Point","coordinates":[-105.492569,37.582508]}},{"type":"Feature","properties":{"name":"Mount Lindsey","name_abbr":"Mt. Lindsey","rank":43,"elev":14042,"range":"Sangre de Cristo Range","range_abbr":"Sangre de Cristo","Unranked Notes":"","forecast":"https://api.darksky.net/forecast/2ef0d25a58c09e083c5783ee44cbfea9/37.583801,-105.444763"},"geometry":{"type":"Point","coordinates":[-105.444763,37.583801]}},{"type":"Feature","properties":{"name":"North Eolus","name_abbr":"North Eolus","rank":"","elev":14039,"range":"San Juan Mountains","range_abbr":"San Juan","Unranked Notes":"179 feet above its saddle with Mt. Eolus","forecast":"https://api.darksky.net/forecast/2ef0d25a58c09e083c5783ee44cbfea9/37.625416,-107.620995"},"geometry":{"type":"Point","coordinates":[-107.620995,37.625416]}},{"type":"Feature","properties":{"name":"Little Bear Peak","name_abbr":"Little Bear Pk.","rank":44,"elev":14037,"range":"Sangre de Cristo Range","range_abbr":"Sangre de Cristo","Unranked Notes":"","forecast":"https://api.darksky.net/forecast/2ef0d25a58c09e083c5783ee44cbfea9/37.566624,-105.497162"},"geometry":{"type":"Point","coordinates":[-105.497162,37.566624]}},{"type":"Feature","properties":{"name":"Mount Sherman","name_abbr":"Mt. Sherman","rank":45,"elev":14036,"range":"Mosquito Range","range_abbr":"Mosquito","Unranked Notes":"","forecast":"https://api.darksky.net/forecast/2ef0d25a58c09e083c5783ee44cbfea9/39.225006,-106.169945"},"geometry":{"type":"Point","coordinates":[-106.169945,39.225006]}},{"type":"Feature","properties":{"name":"Redcloud Peak","name_abbr":"Redcloud Pk.","rank":46,"elev":14034,"range":"San Juan Mountains","range_abbr":"San Juan","Unranked Notes":"","forecast":"https://api.darksky.net/forecast/2ef0d25a58c09e083c5783ee44cbfea9/37.94088,-107.421654"},"geometry":{"type":"Point","coordinates":[-107.421654,37.94088]}},{"type":"Feature","properties":{"name":"Pyramid Peak","name_abbr":"Pyramid Pk.","rank":47,"elev":14018,"range":"Elk Mountains","range_abbr":"Elk","Unranked Notes":"","forecast":"https://api.darksky.net/forecast/2ef0d25a58c09e083c5783ee44cbfea9/39.071545,-106.950188"},"geometry":{"type":"Point","coordinates":[-106.950188,39.071545]}},{"type":"Feature","properties":{"name":"Wilson Peak","name_abbr":"Wilson Pk.","rank":48,"elev":14017,"range":"San Juan Mountains","range_abbr":"San Juan","Unranked Notes":"","forecast":"https://api.darksky.net/forecast/2ef0d25a58c09e083c5783ee44cbfea9/37.859913,-107.984795"},"geometry":{"type":"Point","coordinates":[-107.984795,37.859913]}},{"type":"Feature","properties":{"name":"Wetterhorn Peak","name_abbr":"Wetterhorn Pk.","rank":49,"elev":14015,"range":"San Juan Mountains","range_abbr":"San Juan","Unranked Notes":"","forecast":"https://api.darksky.net/forecast/2ef0d25a58c09e083c5783ee44cbfea9/38.060593,-107.510834"},"geometry":{"type":"Point","coordinates":[-107.510834,38.060593]}},{"type":"Feature","properties":{"name":"San Luis Peak","name_abbr":"San Luis Pk.","rank":50,"elev":14014,"range":"San Juan Mountains","range_abbr":"San Juan","Unranked Notes":"","forecast":"https://api.darksky.net/forecast/2ef0d25a58c09e083c5783ee44cbfea9/37.986897,-106.931389"},"geometry":{"type":"Point","coordinates":[-106.931389,37.986897]}},{"type":"Feature","properties":{"name":"North Maroon Peak","name_abbr":"North Maroon Pk.","rank":"","elev":14014,"range":"Elk Mountains","range_abbr":"Elk","Unranked Notes":"234 feet above its saddle with Maroon Peak","forecast":"https://api.darksky.net/forecast/2ef0d25a58c09e083c5783ee44cbfea9/39.076077,-106.987267"},"geometry":{"type":"Point","coordinates":[-106.987267,39.076077]}},{"type":"Feature","properties":{"name":"Mount of the Holy Cross","name_abbr":"Mt. of the Holy Cross","rank":51,"elev":14005,"range":"Sawatch Range","range_abbr":"Sawatch","Unranked Notes":"","forecast":"https://api.darksky.net/forecast/2ef0d25a58c09e083c5783ee44cbfea9/39.466713,-106.481766"},"geometry":{"type":"Point","coordinates":[-106.481766,39.466713]}},{"type":"Feature","properties":{"name":"Huron Peak","name_abbr":"Huron Pk.","rank":52,"elev":14003,"range":"Sawatch Range","range_abbr":"Sawatch","Unranked Notes":"","forecast":"https://api.darksky.net/forecast/2ef0d25a58c09e083c5783ee44cbfea9/38.945423,-106.438126"},"geometry":{"type":"Point","coordinates":[-106.438126,38.945423]}},{"type":"Feature","properties":{"name":"Sunshine Peak","name_abbr":"Sunshine Pk.","rank":53,"elev":14001,"range":"San Juan Mountains","range_abbr":"San Juan","Unranked Notes":"","forecast":"https://api.darksky.net/forecast/2ef0d25a58c09e083c5783ee44cbfea9/37.922604,-107.425606"},"geometry":{"type":"Point","coordinates":[-107.425606,37.922604]}}]}